id,enabled,pin_name,address,city,additional_info,description (add here a one-line description of the place),phone,url,display_url,price,price_cpx,lat,lon,region_kind,region_id,region_name,polygon_geom,image,venue_id,android_deep_link,ios_deep_link,external_ref,monday,tuesday,wednesday,thursday,friday,saturday,sunday,Air conditioning,Valet service,Take-out,Outdoor seating,Wi-Fi,Parking for customers,Credit cards,Reservations,Drive-thru,Delivery,Wheelchair accessible,Restrooms,Location Tag,VERIFICADO?
2559789,TRUE,Cruz Roja Mexicana - Oaxaca,Armenta Y López,Oaxaca De Juárez,,"Hospital, Servicios de Ambulancias",9515164809,https://goo.gl/fhmQmr,Información en Facebook,100,,17.05584526,-96.7251358,,,,,,172556459.1725367978.8256327,,,,,,,,,,,FALSE,FALSE,FALSE,FALSE,FALSE,FALSE,FALSE,FALSE,FALSE,FALSE,FALSE,FALSE,La Cruz Roja Mexicana,
2560272,TRUE,Cruz Roja de S Cristóbal,Av. Ignacio Allende,San Cristóbal De Las Casas,,,9676780772,https://goo.gl/26gw52,,100,,16.72674942,-92.64076233,,,,,,,,,,,,,,,,,FALSE,FALSE,FALSE,FALSE,FALSE,FALSE,FALSE,FALSE,FALSE,FALSE,FALSE,FALSE,La Cruz Roja Mexicana,
2574374,TRUE,Zona de derrumbre,Sierravísta Y Río Bamba,Cdmx,,Centro Nacional de Apoyo para Contingencias Epidemiológicas y Desastres A.C.,52508066,https://www.cenaced.org.mx,https://www.cenaced.org.mx,100,,17.05994,-96.725051,,,,,,,,,,,,,,,,,FALSE,FALSE,FALSE,FALSE,FALSE,FALSE,FALSE,FALSE,FALSE,FALSE,FALSE,FALSE,Temblor,
2574375,TRUE,Zona de derrumbre,Laguna De Terminos Y Lago Cultezeo,Cdmx,,Centro Nacional de Apoyo para Contingencias Epidemiológicas y Desastres A.C.,52508066,https://www.cenaced.org.mx,https://www.cenaced.org.mx,100,,19.442443,-99.174397,,,,,,,,,,,,,,,,,FALSE,FALSE,FALSE,FALSE,FALSE,FALSE,FALSE,FALSE,FALSE,FALSE,FALSE,FALSE,Temblor,
2574376,TRUE,Zona de derrumbre,Av Coyoacan Y Providencia,Cdmx,,Centro Nacional de Apoyo para Contingencias Epidemiológicas y Desastres A.C.,52508066,https://www.cenaced.org.mx,https://www.cenaced.org.mx,100,,19.398604,-99.166853,,,,,,,,,,,,,,,,,FALSE,FALSE,FALSE,FALSE,FALSE,FALSE,FALSE,FALSE,FALSE,FALSE,FALSE,FALSE,Temblor,
2574377,TRUE,Zona de derrumbre,Escocia Y Nicolas,Cdmx,,Centro Nacional de Apoyo para Contingencias Epidemiológicas y Desastres A.C.,52508066,https://www.cenaced.org.mx,https://www.cenaced.org.mx,100,,19.387305,-99.16245,,,,,,,,,,,,,,,,,FALSE,FALSE,FALSE,FALSE,FALSE,FALSE,FALSE,FALSE,FALSE,FALSE,FALSE,FALSE,Temblor,
2574378,TRUE,Zona de derrumbre,Eugenia Y Edinburgo,Cdmx,,Centro Nacional de Apoyo para Contingencias Epidemiológicas y Desastres A.C.,52508066,https://www.cenaced.org.mx,https://www.cenaced.org.mx,100,,19.386598,-99.163642,,,,,,,,,,,,,,,,,FALSE,FALSE,FALSE,FALSE,FALSE,FALSE,FALSE,FALSE,FALSE,FALSE,FALSE,FALSE,Temblor,
2574379,TRUE,Zona de derrumbre,Peten Y Zapata,Cdmx,,Centro Nacional de Apoyo para Contingencias Epidemiológicas y Desastres A.C.,52508066,https://www.cenaced.org.mx,https://www.cenaced.org.mx,100,,19.366511,-99.156891,,,,,,,,,,,,,,,,,FALSE,FALSE,FALSE,FALSE,FALSE,FALSE,FALSE,FALSE,FALSE,FALSE,FALSE,FALSE,Temblor,
2574380,TRUE,Zona de derrumbre,Gabriel Mancera Y Escocia,Cdmx,,Centro Nacional de Apoyo para Contingencias Epidemiológicas y Desastres A.C.,52508066,https://www.cenaced.org.mx,https://www.cenaced.org.mx,100,,19.38766,-99.163934,,,,,,,,,,,,,,,,,FALSE,FALSE,FALSE,FALSE,FALSE,FALSE,FALSE,FALSE,FALSE,FALSE,FALSE,FALSE,Temblor,
2574381,TRUE,Zona de derrumbre,Yacatas Y Concepcion Beistegui,Cdmx,,Centro Nacional de Apoyo para Contingencias Epidemiológicas y Desastres A.C.,52508066,https://www.cenaced.org.mx,https://www.cenaced.org.mx,100,,19.387366,-99.156062,,,,,,,,,,,,,,,,,FALSE,FALSE,FALSE,FALSE,FALSE,FALSE,FALSE,FALSE,FALSE,FALSE,FALSE,FALSE,Temblor,
2574382,TRUE,Zona de derrumbre,Balsas #18 Y Miravalle,Cdmx,,Centro Nacional de Apoyo para Contingencias Epidemiológicas y Desastres A.C.,52508066,https://www.cenaced.org.mx,https://www.cenaced.org.mx,100,,19.360722,-99.140568,,,,,,,,,,,,,,,,,FALSE,FALSE,FALSE,FALSE,FALSE,FALSE,FALSE,FALSE,FALSE,FALSE,FALSE,FALSE,Temblor,
2574383,TRUE,Zona de derrumbre,Calz De Las Brujas Y Division Del Norte,Cdmx,,Centro Nacional de Apoyo para Contingencias Epidemiológicas y Desastres A.C.,52508066,https://www.cenaced.org.mx,https://www.cenaced.org.mx,100,,19.296608,-99.13058,,,,,,,,,,,,,,,,,FALSE,FALSE,FALSE,FALSE,FALSE,FALSE,FALSE,FALSE,FALSE,FALSE,FALSE,FALSE,Temblor,
2574384,TRUE,Zona de derrumbre,Paseo De Las Galias  Y Av Tlahuac,Cdmx,,Centro Nacional de Apoyo para Contingencias Epidemiológicas y Desastres A.C.,52508066,https://www.cenaced.org.mx,https://www.cenaced.org.mx,100,,19.32238,-99.09726,,,,,,,,,,,,,,,,,FALSE,FALSE,FALSE,FALSE,FALSE,FALSE,FALSE,FALSE,FALSE,FALSE,FALSE,FALSE,Temblor,
2574385,TRUE,Zona de derrumbre,Ermita Iztapalapa Y Calzada Dla Viga,Cdmx,,Centro Nacional de Apoyo para Contingencias Epidemiológicas y Desastres A.C.,52508066,https://www.cenaced.org.mx,https://www.cenaced.org.mx,100,,19.357629,-99.121961,,,,,,,,,,,,,,,,,FALSE,FALSE,FALSE,FALSE,FALSE,FALSE,FALSE,FALSE,FALSE,FALSE,FALSE,FALSE,Temblor,
2574386,TRUE,Zona de derrumbre,10 De Abril Y Anenecuilco,Cdmx,,Centro Nacional de Apoyo para Contingencias Epidemiológicas y Desastres A.C.,52508066,https://www.cenaced.org.mx,https://www.cenaced.org.mx,100,,19.316634,-99.109938,,,,,,,,,,,,,,,,,FALSE,FALSE,FALSE,FALSE,FALSE,FALSE,FALSE,FALSE,FALSE,FALSE,FALSE,FALSE,Temblor,
2574387,TRUE,Zona de derrumbre,Av San Ana Y Ejido Santa Cruz,Cdmx,Col. San Francisco Culhuacán,Centro Nacional de Apoyo para Contingencias Epidemiológicas y Desastres A.C.,52508066,https://www.cenaced.org.mx,https://www.cenaced.org.mx,100,,19.329427,-99.124928,,,,,,,,,,,,,,,,,FALSE,FALSE,FALSE,FALSE,FALSE,FALSE,FALSE,FALSE,FALSE,FALSE,FALSE,FALSE,Temblor,
2574388,TRUE,Zona de derrumbre,Periférico Y Circuito Cuemanco Norte,Cdmx,,Centro Nacional de Apoyo para Contingencias Epidemiológicas y Desastres A.C.,52508066,https://www.cenaced.org.mx,https://www.cenaced.org.mx,100,,19.281995,-99.113168,,,,,,,,,,,,,,,,,FALSE,FALSE,FALSE,FALSE,FALSE,FALSE,FALSE,FALSE,FALSE,FALSE,FALSE,FALSE,Temblor,
2574389,TRUE,Zona de derrumbre,Rancho De Los Arcos Y Calz Del Hueso,Cdmx,,Centro Nacional de Apoyo para Contingencias Epidemiológicas y Desastres A.C.,52508066,https://www.cenaced.org.mx,https://www.cenaced.org.mx,100,,19.303344,-99.12299,,,,,,,,,,,,,,,,,FALSE,FALSE,FALSE,FALSE,FALSE,FALSE,FALSE,FALSE,FALSE,FALSE,FALSE,FALSE,Temblor,
2574390,TRUE,Zona de derrumbre,Viaducto Y Av Coyoacan,Cdmx,,Centro Nacional de Apoyo para Contingencias Epidemiológicas y Desastres A.C.,52508066,https://www.cenaced.org.mx,https://www.cenaced.org.mx,100,,19.400198,-99.167903,,,,,,,,,,,,,,,,,FALSE,FALSE,FALSE,FALSE,FALSE,FALSE,FALSE,FALSE,FALSE,FALSE,FALSE,FALSE,Temblor,
2574391,TRUE,Zona de derrumbre,Tlalpan Fovissste Y Calz De Tlalpan,Cdmx,,Centro Nacional de Apoyo para Contingencias Epidemiológicas y Desastres A.C.,52508066,https://www.cenaced.org.mx,https://www.cenaced.org.mx,100,,19.340871,-99.143292,,,,,,,,,,,,,,,,,FALSE,FALSE,FALSE,FALSE,FALSE,FALSE,FALSE,FALSE,FALSE,FALSE,FALSE,FALSE,Temblor,
2574392,TRUE,Zona de derrumbre,Comonfort Y Jaime Nuno,Cdmx,,Centro Nacional de Apoyo para Contingencias Epidemiológicas y Desastres A.C.,52508066,https://www.cenaced.org.mx,https://www.cenaced.org.mx,100,,19.445171,-99.135075,,,,,,,,,,,,,,,,,FALSE,FALSE,FALSE,FALSE,FALSE,FALSE,FALSE,FALSE,FALSE,FALSE,FALSE,FALSE,Temblor,
2574393,TRUE,Zona de derrumbre,Lerdo Y Magnolia,Cdmx,,Centro Nacional de Apoyo para Contingencias Epidemiológicas y Desastres A.C.,52508066,https://www.cenaced.org.mx,https://www.cenaced.org.mx,100,,19.442598,-99.142839,,,,,,,,,,,,,,,,,FALSE,FALSE,FALSE,FALSE,FALSE,FALSE,FALSE,FALSE,FALSE,FALSE,FALSE,FALSE,Temblor,
2574394,TRUE,Zona de derrumbre,Mina 16 Y 2 De Abril,Cdmx,,Centro Nacional de Apoyo para Contingencias Epidemiológicas y Desastres A.C.,52508066,https://www.cenaced.org.mx,https://www.cenaced.org.mx,100,,19.438887,-99.141669,,,,,,,,,,,,,,,,,FALSE,FALSE,FALSE,FALSE,FALSE,FALSE,FALSE,FALSE,FALSE,FALSE,FALSE,FALSE,Temblor,
2574395,TRUE,Zona de derrumbre,Laredo Y Amsterdam,Cdmx,,Centro Nacional de Apoyo para Contingencias Epidemiológicas y Desastres A.C.,52508066,https://www.cenaced.org.mx,https://www.cenaced.org.mx,100,,19.414317,-99.170106,,,,,,,,,,,,,,,,,FALSE,FALSE,FALSE,FALSE,FALSE,FALSE,FALSE,FALSE,FALSE,FALSE,FALSE,FALSE,Temblor,
2574396,TRUE,Zona de derrumbre,Chimalpopoca Y Simón Bolívar,Cdmx,,Centro Nacional de Apoyo para Contingencias Epidemiológicas y Desastres A.C.,52508066,https://www.cenaced.org.mx,https://www.cenaced.org.mx,100,,19.422269,-99.140019,,,,,,,,,,,,,,,,,FALSE,FALSE,FALSE,FALSE,FALSE,FALSE,FALSE,FALSE,FALSE,FALSE,FALSE,FALSE,Temblor,
2574397,TRUE,Zona de derrumbre,Tabasco Y Medellín,Cdmx,,Centro Nacional de Apoyo para Contingencias Epidemiológicas y Desastres A.C.,52508066,https://www.cenaced.org.mx,https://www.cenaced.org.mx,100,,19.417854,-99.166064,,,,,,,,,,,,,,,,,FALSE,FALSE,FALSE,FALSE,FALSE,FALSE,FALSE,FALSE,FALSE,FALSE,FALSE,FALSE,Temblor,
2574398,TRUE,Zona de derrumbre,Salamanca Esquina Oaxaca,Cdmx,,Centro Nacional de Apoyo para Contingencias Epidemiológicas y Desastres A.C.,52508066,https://www.cenaced.org.mx,https://www.cenaced.org.mx,100,,19.417036,-99.169041,,,,,,,,,,,,,,,,,FALSE,FALSE,FALSE,FALSE,FALSE,FALSE,FALSE,FALSE,FALSE,FALSE,FALSE,FALSE,Temblor,
2574399,TRUE,Zona de derrumbre,Puebla 282 Esq Salamanca,Cdmx,,Centro Nacional de Apoyo para Contingencias Epidemiológicas y Desastres A.C.,52508066,https://www.cenaced.org.mx,https://www.cenaced.org.mx,100,,19.421016,-99.170059,,,,,,,,,,,,,,,,,FALSE,FALSE,FALSE,FALSE,FALSE,FALSE,FALSE,FALSE,FALSE,FALSE,FALSE,FALSE,Temblor,
2574400,TRUE,Zona de derrumbre,Alvaro Obregón Y Valladolid,Cdmx,,Centro Nacional de Apoyo para Contingencias Epidemiológicas y Desastres A.C.,52508066,https://www.cenaced.org.mx,https://www.cenaced.org.mx,100,,19.416907,-99.167314,,,,,,,,,,,,,,,,,FALSE,FALSE,FALSE,FALSE,FALSE,FALSE,FALSE,FALSE,FALSE,FALSE,FALSE,FALSE,Temblor,
,,Zona de derrumbre,La Morena y Heriberto Frias,Cdmx,Narvarte Poniente,,,,,,,19.398836,-99.15941,,,,,,,,,,,,,,,,,,,,,,,,,,,,,,
,,Zona de derrumbre,La Morena y Enrique Rebsamen,Cdmx,Narvarte Poniente,,,,,,,19.398892,-99.1586,,,,,,,,,,,,,,,,,,,,,,,,,,,,,,
2574403,TRUE,CDMX,,,,Centro Nacional de Apoyo para Contingencias Epidemiológicas y Desastres A.C.,,,,100,,,,Metro,2128,MexicoCity,,,,,,,,,,,,,,FALSE,FALSE,FALSE,FALSE,FALSE,FALSE,FALSE,FALSE,FALSE,FALSE,FALSE,FALSE,,
2574404,TRUE,Puebla,,,,Centro Nacional de Apoyo para Contingencias Epidemiológicas y Desastres A.C.,,,,100,,,,Metro,1690,Puebla,,,,,,,,,,,,,,FALSE,FALSE,FALSE,FALSE,FALSE,FALSE,FALSE,FALSE,FALSE,FALSE,FALSE,FALSE,,
2574405,TRUE,Morelos - State,,,,Centro Nacional de Apoyo para Contingencias Epidemiológicas y Desastres A.C.,,,,100,,,,State,1700027,Morelos,,,,,,,,,,,,,,FALSE,FALSE,FALSE,FALSE,FALSE,FALSE,FALSE,FALSE,FALSE,FALSE,FALSE,FALSE,,
2574406,TRUE,Zona de derrumbre,Calle Gabriel Mancera 740b,Cdmx,,Centro Nacional de Apoyo para Contingencias Epidemiológicas y Desastres A.C.,,,,100,,19.387547,-99.163825,,,,,,,,,,,,,,,,,FALSE,FALSE,FALSE,FALSE,FALSE,FALSE,FALSE,FALSE,FALSE,FALSE,FALSE,FALSE,Temblor,
,,Zona de derrumbre,"Calle del Puente 222, Ejidos de Huipulco, San Bartolo el Chico, 14380 Tlalpan, CDMX",Cdmx,,,,,,,,19.283297,-99.135177,,,,,,,,,,,,,,,,,,,,,,,,,,,,,,
,,Zona de derrumbre,Narciso Mendoza        Av. las Trancas,CDMX,,,,,,,,19.293062,-99.12324,,,,,,,,,,,,,,,,,,,,,,,,,,,,,,
,,Zona de derrumbre,MorelosMorelos        Comonfort        48,,,,,,,,,19.445279,-99.135279,,,,,,,,,,,,,,,,,,,,,,,,,,,,,,
,,Zona de derrumbre,Barrio 18        Cañaverales        ,Cdmx,,,,,,,,19.294597,-99.111725,,,,,,,,,,,,,,,,,,,,,,,,,,,,,,
,,Zona de derrumbre,Barrio del Rosario        Pedro Ramírez del Castillo,Cdmx,,,,,,,,19.26345,-99.105373,,,,,,,,,,,,,,,,,,,,,,,,,,,,,,
,,Zona de derrumbre,San Gregorio Atlapulco        Av. México,Cdmx,,,,,,,,19.255266,-99.056425,,,,,,,,,,,,,,,,,,,,,,,,,,,,,,
,,Zona de derrumbre,"Del Calvario 35
Santa Cruz Acalpixca
16500 Ciudad de México, CDMX",Cdmx,,,,,,,,19.244729,-99.073859,,,,,,,,,,,,,,,,,,,,,,,,,,,,,,
,,Zona de derrumbre,"Av 16 de Septiembre
Santa María Tepepan
16020 Ciudad de México, CDMX",cdmx,,,,,,,,19.278074,-99.133672,,,,,,,,,,,,,,,,,,,,,,,,,,,,,,
2574409,TRUE,Centro de Acopio,Polanco,Cdmx,,Centro Nacional de Apoyo para Contingencias Epidemiológicas y Desastres A.C.,,,,100,,19.429145,-99.1963563,,,,,,,,,,,,,,,,,FALSE,FALSE,FALSE,FALSE,FALSE,FALSE,FALSE,FALSE,FALSE,FALSE,FALSE,FALSE,Centro de Acopio,
2574410,TRUE,Centro de Acopio,Estadio Olimpico,Cdmx,,Centro Nacional de Apoyo para Contingencias Epidemiológicas y Desastres A.C.,,,,100,,19.3319125,-99.1943664,,,,,,,,,,,,,,,,,FALSE,FALSE,FALSE,FALSE,FALSE,FALSE,FALSE,FALSE,FALSE,FALSE,FALSE,FALSE,Centro de Acopio,
2574411,TRUE,Centro de Acopio,Zocalo,Cdmx,,Centro Nacional de Apoyo para Contingencias Epidemiológicas y Desastres A.C.,,,,100,,19.4326018,-99.1353936,,,,,,,,,,,,,,,,,FALSE,FALSE,FALSE,FALSE,FALSE,FALSE,FALSE,FALSE,FALSE,FALSE,FALSE,FALSE,Centro de Acopio,
2574412,TRUE,Centro de Acopio,Parque España,Cdmx,,Centro Nacional de Apoyo para Contingencias Epidemiológicas y Desastres A.C.,,,,100,,19.4161958,-99.173079,,,,,,,,,,,,,,,,,FALSE,FALSE,FALSE,FALSE,FALSE,FALSE,FALSE,FALSE,FALSE,FALSE,FALSE,FALSE,Centro de Acopio,
2574413,TRUE,Centro de Acopio,Cruz Roja Polanco,Cdmx,,Centro Nacional de Apoyo para Contingencias Epidemiológicas y Desastres A.C.,,,,100,,19.4377491,-99.2112153,,,,,,,,,,,,,,,,,FALSE,FALSE,FALSE,FALSE,FALSE,FALSE,FALSE,FALSE,FALSE,FALSE,FALSE,FALSE,Centro de Acopio,
2574414,TRUE,Centro de Acopio,Glorieta De Las Cibeles,Cdmx,,Centro Nacional de Apoyo para Contingencias Epidemiológicas y Desastres A.C.,,,,100,,19.4196927,-99.1679135,,,,,,,,,,,,,,,,,FALSE,FALSE,FALSE,FALSE,FALSE,FALSE,FALSE,FALSE,FALSE,FALSE,FALSE,FALSE,Centro de Acopio,
2574415,TRUE,Centro de Acopio,Rubén Darío 115,Cdmx,,Centro Nacional de Apoyo para Contingencias Epidemiológicas y Desastres A.C.,,,,100,,19.4278602,-99.1892484,,,,,,,,,,,,,,,,,FALSE,FALSE,FALSE,FALSE,FALSE,FALSE,FALSE,FALSE,FALSE,FALSE,FALSE,FALSE,Centro de Acopio,
2574416,TRUE,Centro de Acopio,Glorieta De Masaryk,Cdmx,,Centro Nacional de Apoyo para Contingencias Epidemiológicas y Desastres A.C.,,,,100,,19.4315679,-99.1956901,,,,,,,,,,,,,,,,,FALSE,FALSE,FALSE,FALSE,FALSE,FALSE,FALSE,FALSE,FALSE,FALSE,FALSE,FALSE,Centro de Acopio,
,TRUE,Centro de Acopio,"Boulevard de la luz 122, Jardines del Pedregal",Cdmx,,Centro Nacional de Apoyo para Contingencias Epidemiológicas y Desastres A.C.,,,,100,,19.320315,-99.213595,,,,,,,,,,,,,,,,,FALSE,FALSE,FALSE,FALSE,FALSE,FALSE,FALSE,FALSE,FALSE,FALSE,FALSE,FALSE,Centro de Acopio,
,TRUE,Centro de Acopio,Universidad Iberoamericana,Cdmx,,Centro de Acopio,,https://twitter.com/fersch_4/status/910273707091795968,,100,,19.3685622,-99.263065,,,,,,,,,,,,,,,,,FALSE,FALSE,FALSE,FALSE,FALSE,FALSE,FALSE,FALSE,FALSE,FALSE,FALSE,FALSE,Centro de Acopio,
,TRUE,Centro de Acopio,Las MIsiones,Cdmx,,Centro de Acopio,,https://twitter.com/fersch_4/status/910273707091795968,,100,,19.3745802,-99.2446147,,,,,,,,,,,,,,,,,FALSE,FALSE,FALSE,FALSE,FALSE,FALSE,FALSE,FALSE,FALSE,FALSE,FALSE,FALSE,Centro de Acopio,
,TRUE,Centro de Acopio,México,Cdmx,,Centro de Acopio,,https://twitter.com/fersch_4/status/910273707091795968,,100,,19.41189,-99.16929,,,,,,,,,,,,,,,,,FALSE,FALSE,FALSE,FALSE,FALSE,FALSE,FALSE,FALSE,FALSE,FALSE,FALSE,FALSE,Centro de Acopio,
,TRUE,Centro de Acopio,Heriberto Frias 819,Cdmx,,Centro de Acopio,,https://twitter.com/fersch_4/status/910273707091795968,,100,,19.38763,-99.16091,,,,,,,,,,,,,,,,,FALSE,FALSE,FALSE,FALSE,FALSE,FALSE,FALSE,FALSE,FALSE,FALSE,FALSE,FALSE,Centro de Acopio,
,TRUE,Centro de Acopio,Centro de acopio Rinconada de Jesús,Cdmx,,Centro de Acopio,,https://twitter.com/fersch_4/status/910273707091795968,,100,,19.50786,-99.25203,,,,,,,,,,,,,,,,,FALSE,FALSE,FALSE,FALSE,FALSE,FALSE,FALSE,FALSE,FALSE,FALSE,FALSE,FALSE,Centro de Acopio,
,TRUE,Centro de Acopio,Ruben Dario 115,Cdmx,,Centro de Acopio,,https://twitter.com/fersch_4/status/910273707091795968,,100,,19.42904,-99.18503,,,,,,,,,,,,,,,,,FALSE,FALSE,FALSE,FALSE,FALSE,FALSE,FALSE,FALSE,FALSE,FALSE,FALSE,FALSE,Centro de Acopio,
,TRUE,Centro de Acopio,Paseo de los Tamarindos 49,Cdmx,,Centro de Acopio,,https://twitter.com/fersch_4/status/910273707091795968,,100,,19.39083,-99.25061,,,,,,,,,,,,,,,,,FALSE,FALSE,FALSE,FALSE,FALSE,FALSE,FALSE,FALSE,FALSE,FALSE,FALSE,FALSE,Centro de Acopio,
,TRUE,Centro de Acopio,Privada del Acueducto,Cdmx,,Centro de Acopio,,https://twitter.com/fersch_4/status/910273707091795968,,100,,19.42761,-99.27801,,,,,,,,,,,,,,,,,FALSE,FALSE,FALSE,FALSE,FALSE,FALSE,FALSE,FALSE,FALSE,FALSE,FALSE,FALSE,Centro de Acopio,
,TRUE,Centro de Acopio,Bosques de Avellanos 142,Cdmx,,Centro de Acopio,,https://twitter.com/fersch_4/status/910273707091795968,,100,,19.40098,-99.25315,,,,,,,,,,,,,,,,,FALSE,FALSE,FALSE,FALSE,FALSE,FALSE,FALSE,FALSE,FALSE,FALSE,FALSE,FALSE,Centro de Acopio,
,TRUE,Centro de Acopio,Bosques de Toronjos 39-GH02A,Cdmx,,Centro de Acopio,,https://twitter.com/fersch_4/status/910273707091795968,,100,,19.37948,-99.26318,,,,,,,,,,,,,,,,,FALSE,FALSE,FALSE,FALSE,FALSE,FALSE,FALSE,FALSE,FALSE,FALSE,FALSE,FALSE,Centro de Acopio,
,TRUE,Centro de Acopio,Blvd. de los Virreyes 1110,Cdmx,,Centro de Acopio,,https://twitter.com/fersch_4/status/910273707091795968,,100,,19.41392,-99.21691,,,,,,,,,,,,,,,,,FALSE,FALSE,FALSE,FALSE,FALSE,FALSE,FALSE,FALSE,FALSE,FALSE,FALSE,FALSE,Centro de Acopio,
,TRUE,Centro de Acopio,Sierra Amatepec 193,Cdmx,,Centro de Acopio,,https://twitter.com/fersch_4/status/910273707091795968,,100,,19.41918,-99.23071,,,,,,,,,,,,,,,,,FALSE,FALSE,FALSE,FALSE,FALSE,FALSE,FALSE,FALSE,FALSE,FALSE,FALSE,FALSE,Centro de Acopio,
,TRUE,Centro de Acopio,Arteaga y Salazar 1267 Casa 5,Cdmx,,Centro de Acopio,,https://twitter.com/fersch_4/status/910273707091795968,,100,,19.35299,-99.27843,,,,,,,,,,,,,,,,,FALSE,FALSE,FALSE,FALSE,FALSE,FALSE,FALSE,FALSE,FALSE,FALSE,FALSE,FALSE,Centro de Acopio,
,TRUE,Centro de Acopio,Universidad Anahuac,Cdmx,,Centro de Acopio,,https://twitter.com/fersch_4/status/910273707091795968,,100,,19.40139,-99.26373,,,,,,,,,,,,,,,,,FALSE,FALSE,FALSE,FALSE,FALSE,FALSE,FALSE,FALSE,FALSE,FALSE,FALSE,FALSE,Centro de Acopio,
,TRUE,Centro de Acopio,Jardín Pushkin,Cdmx,,Centro de Acopio,,https://twitter.com/KarlaRiveraMX/status/910279744620507137,,100,,19.42037,-99.15416,,,,,,,,,,,,,,,,,FALSE,FALSE,FALSE,FALSE,FALSE,FALSE,FALSE,FALSE,FALSE,FALSE,FALSE,FALSE,Centro de Acopio,
,TRUE,Centro de Acopio,Dr Manuel del Corral 101,Cdmx,,Centro de Acopio,,https://twitter.com/TheProalTeam/status/910294691245182976,,100,,20.11694,-98.73551,,,,,,,,,,,,,,,,,FALSE,FALSE,FALSE,FALSE,FALSE,FALSE,FALSE,FALSE,FALSE,FALSE,FALSE,FALSE,Centro de Acopio,
,TRUE,Centro de Acopio,Fuente de Las Pirámides 37,Cdmx,,Centro de Acopio,,https://twitter.com/MarikaGaGa/status/910297031310237698,,100,,19.42597,-99.22661,,,,,,,,,,,,,,,,,FALSE,FALSE,FALSE,FALSE,FALSE,FALSE,FALSE,FALSE,FALSE,FALSE,FALSE,FALSE,Centro de Acopio,
,TRUE,Centro de Acopio,Av Universidad Anáhuac 46,Cdmx,,Centro de Acopio,,https://docs.google.com/spreadsheets/d/e/2PACX-1vS0P-R4ZySw_PbHQiK4_dUb90pmHB8zSnY_G1OorEFDYfBU2fa0T7jYMk1qGjemOsgEu8Rp9czgAst4/pubhtml?gid=0&single=true,,100,,19.40415,-99.26062,,,,,,,,,,,,,,,,,FALSE,FALSE,FALSE,FALSE,FALSE,FALSE,FALSE,FALSE,FALSE,FALSE,FALSE,FALSE,Centro de Acopio,
,TRUE,Centro de Acopio,Río Hondo 1,Cdmx,,Centro de Acopio,,https://docs.google.com/spreadsheets/d/e/2PACX-1vS0P-R4ZySw_PbHQiK4_dUb90pmHB8zSnY_G1OorEFDYfBU2fa0T7jYMk1qGjemOsgEu8Rp9czgAst4/pubhtml?gid=0&single=true,,100,,19.34418,-99.1999,,,,,,,,,,,,,,,,,FALSE,FALSE,FALSE,FALSE,FALSE,FALSE,FALSE,FALSE,FALSE,FALSE,FALSE,FALSE,Centro de Acopio,
,TRUE,Centro de Acopio,Cruz Roja Mexicana Sede Nacional,Cdmx,,Centro de Acopio,,https://twitter.com/ruggexshawn/status/910277859930976256,,100,,19.43782,-99.20898,,,,,,,,,,,,,,,,,FALSE,FALSE,FALSE,FALSE,FALSE,FALSE,FALSE,FALSE,FALSE,FALSE,FALSE,FALSE,Centro de Acopio,
,TRUE,Centro de Acopio,Fuente de la Cibeles,Cdmx,,Centro de Acopio,,https://twitter.com/efortiza/status/910277145662017536,,100,,19.42,-99.16631,,,,,,,,,,,,,,,,,FALSE,FALSE,FALSE,FALSE,FALSE,FALSE,FALSE,FALSE,FALSE,FALSE,FALSE,FALSE,Centro de Acopio,
,TRUE,Centro de Acopio,Sistema Nacional DIF,Cdmx,,Centro de Acopio,,https://twitter.com/fersch_4/status/910273707091795968,,100,,19.36686,-99.1584,,,,,,,,,,,,,,,,,FALSE,FALSE,FALSE,FALSE,FALSE,FALSE,FALSE,FALSE,FALSE,FALSE,FALSE,FALSE,Centro de Acopio,
,TRUE,Centro de Acopio,Instituto Nacional de Pediatría,Cdmx,,Centro de Acopio,,https://twitter.com/ViviendoDigital/status/910269370974265345,,100,,19.30608,-99.18533,,,,,,,,,,,,,,,,,FALSE,FALSE,FALSE,FALSE,FALSE,FALSE,FALSE,FALSE,FALSE,FALSE,FALSE,FALSE,Centro de Acopio,
,TRUE,Centro de Acopio,Monterrey 200,Cdmx,,Centro de Acopio,,https://twitter.com/gueronassar/status/910286237394784256,,100,,19.41313,-99.16285,,,,,,,,,,,,,,,,,FALSE,FALSE,FALSE,FALSE,FALSE,FALSE,FALSE,FALSE,FALSE,FALSE,FALSE,FALSE,Centro de Acopio,
,TRUE,Centro de Acopio,Calle Valencia 74,Cdmx,,Centro de Acopio,,https://twitter.com/gueronassar/status/910286237394784256,,100,,19.37314,-99.18183,,,,,,,,,,,,,,,,,FALSE,FALSE,FALSE,FALSE,FALSE,FALSE,FALSE,FALSE,FALSE,FALSE,FALSE,FALSE,Centro de Acopio,
,TRUE,Centro de Acopio,Centro Citibanamex,Cdmx,,Centro de Acopio,,https://twitter.com/eleconomista/status/910290603686154241,,100,,19.4416,-99.22276,,,,,,,,,,,,,,,,,FALSE,FALSE,FALSE,FALSE,FALSE,FALSE,FALSE,FALSE,FALSE,FALSE,FALSE,FALSE,Centro de Acopio,
,TRUE,Centro de Acopio,Casa Universitaria del Libro UNAM,Cdmx,,Centro de Acopio,,https://twitter.com/UNAM_MX/status/910289369122172928,,100,,19.42303,-99.16064,,,,,,,,,,,,,,,,,FALSE,FALSE,FALSE,FALSE,FALSE,FALSE,FALSE,FALSE,FALSE,FALSE,FALSE,FALSE,Centro de Acopio,
,TRUE,Centro de Acopio,Estadio Olímpico Universitario,Cdmx,,Centro de Acopio,,https://twitter.com/UNAM_MX/status/910289369122172928,,100,,19.33191,-99.19217,,,,,,,,,,,,,,,,,FALSE,FALSE,FALSE,FALSE,FALSE,FALSE,FALSE,FALSE,FALSE,FALSE,FALSE,FALSE,Centro de Acopio,
,TRUE,Centro de Acopio,Centro Civico Satelite,Cdmx,,Centro de Acopio,,,,100,,19.50997,-99.22916,,,,,,,,,,,,,,,,,FALSE,FALSE,FALSE,FALSE,FALSE,FALSE,FALSE,FALSE,FALSE,FALSE,FALSE,FALSE,Centro de Acopio,
,TRUE,Centro de Acopio,Parque Naucalli,Cdmx,,Centro de Acopio,,https://twitter.com/TMPOficial/status/910303625037045760,,100,,19.49308,-99.24084,,,,,,,,,,,,,,,,,FALSE,FALSE,FALSE,FALSE,FALSE,FALSE,FALSE,FALSE,FALSE,FALSE,FALSE,FALSE,Centro de Acopio,
,TRUE,Centro de Acopio,Exhibitor Center Puebla,Cdmx,,Centro de Acopio,,,,100,,19.05647,-98.18064,,,,,,,,,,,,,,,,,FALSE,FALSE,FALSE,FALSE,FALSE,FALSE,FALSE,FALSE,FALSE,FALSE,FALSE,FALSE,Centro de Acopio,
,TRUE,Centro de Acopio,Centro de Convenciones Puebla,Cdmx,,Centro de Acopio,,,,100,,19.04424,-98.19128,,,,,,,,,,,,,,,,,FALSE,FALSE,FALSE,FALSE,FALSE,FALSE,FALSE,FALSE,FALSE,FALSE,FALSE,FALSE,Centro de Acopio,
,TRUE,Centro de Acopio,Abraham González 67,Cdmx,,Centro de Acopio,,,,100,,19.42964,-99.15389,,,,,,,,,,,,,,,,,FALSE,FALSE,FALSE,FALSE,FALSE,FALSE,FALSE,FALSE,FALSE,FALSE,FALSE,FALSE,Centro de Acopio,
,TRUE,Centro de Acopio,Escuela de Enfermería Ignacio Chavez,Cdmx,,Centro de Acopio,,https://twitter.com/Lordneyn/status/910362269371990016,,100,,19.5303,-99.23036,,,,,,,,,,,,,,,,,FALSE,FALSE,FALSE,FALSE,FALSE,FALSE,FALSE,FALSE,FALSE,FALSE,FALSE,FALSE,Centro de Acopio,
,TRUE,Centro de Acopio,Parroquía de Santa María de la Natividad,Cdmx,,Centro de Acopio,,,,100,,19.38752,-99.14683,,,,,,,,,,,,,,,,,FALSE,FALSE,FALSE,FALSE,FALSE,FALSE,FALSE,FALSE,FALSE,FALSE,FALSE,FALSE,Centro de Acopio,
,TRUE,Centro de Acopio,Cerro San Antonio y Tlalpan,Cdmx,,Centro de Acopio,,https://twitter.com/CNNDiego/status/910384360741834752,,100,,19.33986,-99.14296,,,,,,,,,,,,,,,,,FALSE,FALSE,FALSE,FALSE,FALSE,FALSE,FALSE,FALSE,FALSE,FALSE,FALSE,FALSE,Centro de Acopio,
,TRUE,Centro de Acopio,Gabriel Mancera y Concepcion B.,Cdmx,,Centro de Acopio,,https://twitter.com/bilbeny/status/910388623605927936,,100,,19.38904,-99.16359,,,,,,,,,,,,,,,,,FALSE,FALSE,FALSE,FALSE,FALSE,FALSE,FALSE,FALSE,FALSE,FALSE,FALSE,FALSE,Centro de Acopio,
,,Centro de Acopio,Gabriel Mancera y Obrero Mundial,Cdmx,,Centro de Acopio,,,,,,19.401565,-99.161158,,,,,,,,,,,,,,,,,,,,,,,,,,,,,,
,TRUE,Centro de Acopio,Eje 2 Pte & Calle Concepción Beistegui,Cdmx,,Centro de Acopio,,https://twitter.com/bilbeny/status/910388623605927936,,100,,19.38902,-99.16359,,,,,,,,,,,,,,,,,FALSE,FALSE,FALSE,FALSE,FALSE,FALSE,FALSE,FALSE,FALSE,FALSE,FALSE,FALSE,Centro de Acopio,
,TRUE,Centro de Acopio,"Skyview Polanco, Av Ejército Nacional 245, Miguel Hidalgo",Cdmx,,Centro de Acopio,,,,100,,19.43722,-99.18043,,,,,,,,,,,,,,,,,FALSE,FALSE,FALSE,FALSE,FALSE,FALSE,FALSE,FALSE,FALSE,FALSE,FALSE,FALSE,Centro de Acopio,
,TRUE,Centro de Acopio,Plutarco Elías Calles y Bretaña,Cdmx,,Centro de Acopio,,https://twitter.com/Jerry_RZ11/status/910349401528381441,,100,,19.3729,-99.13656,,,,,,,,,,,,,,,,,FALSE,FALSE,FALSE,FALSE,FALSE,FALSE,FALSE,FALSE,FALSE,FALSE,FALSE,FALSE,Centro de Acopio,
,TRUE,Centro de Acopio,Cine Tonalá,Cdmx,,Centro de Acopio,,,,100,,19.40893,-99.16055,,,,,,,,,,,,,,,,,FALSE,FALSE,FALSE,FALSE,FALSE,FALSE,FALSE,FALSE,FALSE,FALSE,FALSE,FALSE,Centro de Acopio,
,TRUE,Centro de Acopio,Bosque de Chapultepec Acceso de Leones,Cdmx,,Centro de Acopio,,https://twitter.com/ChapultepecCDMX/status/910355649544015872,,100,,19.42299,-99.17612,,,,,,,,,,,,,,,,,FALSE,FALSE,FALSE,FALSE,FALSE,FALSE,FALSE,FALSE,FALSE,FALSE,FALSE,FALSE,Centro de Acopio,
,TRUE,Centro de Acopio,Plaza de Toros,Cdmx,,Centro de Acopio,,,,100,,19.38294,-99.1801,,,,,,,,,,,,,,,,,FALSE,FALSE,FALSE,FALSE,FALSE,FALSE,FALSE,FALSE,FALSE,FALSE,FALSE,FALSE,Centro de Acopio,
,TRUE,Centro de Acopio,Zócalo de Puebla,Puebla,,Centro de Acopio,,,,100,,19.04383,-98.19823,,,,,,,,,,,,,,,,,FALSE,FALSE,FALSE,FALSE,FALSE,FALSE,FALSE,FALSE,FALSE,FALSE,FALSE,FALSE,Centro de Acopio,
,TRUE,Centro de Acopio,Nursing School,Puebla,,Centro de Acopio,,,,100,,19.04794,-98.18818,,,,,,,,,,,,,,,,,FALSE,FALSE,FALSE,FALSE,FALSE,FALSE,FALSE,FALSE,FALSE,FALSE,FALSE,FALSE,Centro de Acopio,
,TRUE,Centro de Acopio,McCarthy's Irish Pub,Puebla,,Centro de Acopio,,,,100,,19.02704,-98.20639,,,,,,,,,,,,,,,,,FALSE,FALSE,FALSE,FALSE,FALSE,FALSE,FALSE,FALSE,FALSE,FALSE,FALSE,FALSE,Centro de Acopio,
,TRUE,Centro de Acopio,Mantra Night Club,Puebla,,Centro de Acopio,,,,100,,19.05514,-98.29229,,,,,,,,,,,,,,,,,FALSE,FALSE,FALSE,FALSE,FALSE,FALSE,FALSE,FALSE,FALSE,FALSE,FALSE,FALSE,Centro de Acopio,
,TRUE,Centro de Acopio,COPARMEX PUEBLA,Puebla,,Centro de Acopio,,,,100,,19.04563,-98.21078,,,,,,,,,,,,,,,,,FALSE,FALSE,FALSE,FALSE,FALSE,FALSE,FALSE,FALSE,FALSE,FALSE,FALSE,FALSE,Centro de Acopio,
,TRUE,Centro de Acopio,Parroquia De Nuestra Senora Del Camino,Puebla,,Centro de Acopio,,,,100,,19.024,-98.24079,,,,,,,,,,,,,,,,,FALSE,FALSE,FALSE,FALSE,FALSE,FALSE,FALSE,FALSE,FALSE,FALSE,FALSE,FALSE,Centro de Acopio,
,TRUE,Centro de Acopio,Volkswagen Financial,Puebla,,Centro de Acopio,,,,100,,19.1181,-98.25257,,,,,,,,,,,,,,,,,FALSE,FALSE,FALSE,FALSE,FALSE,FALSE,FALSE,FALSE,FALSE,FALSE,FALSE,FALSE,Centro de Acopio,
,TRUE,Centro de Acopio,Cruz Roja Huejotzingo,Puebla,,Centro de Acopio,,,,100,,19.16908,-98.40698,,,,,,,,,,,,,,,,,FALSE,FALSE,FALSE,FALSE,FALSE,FALSE,FALSE,FALSE,FALSE,FALSE,FALSE,FALSE,Centro de Acopio,
,TRUE,Centro de Acopio,DIF Las Quintas,Puebla,,Centro de Acopio,,https://twitter.com/azahua/status/910365225987297280,,100,,18.91626,-99.21719,,,,,,,,,,,,,,,,,FALSE,FALSE,FALSE,FALSE,FALSE,FALSE,FALSE,FALSE,FALSE,FALSE,FALSE,FALSE,Centro de Acopio,
,TRUE,Centro de Acopio,Universidad Anahuac Puebla,Puebla,,Centro de Acopio,,,,100,,19.01986,-98.26304,,,,,,,,,,,,,,,,,FALSE,FALSE,FALSE,FALSE,FALSE,FALSE,FALSE,FALSE,FALSE,FALSE,FALSE,FALSE,Centro de Acopio,
,TRUE,Centro de Acopio,Edificio Google,CDMX,,Centro de Acopio,,,,100,,19.428343,-99.208798,,,,,,,,,,,,,,,,,FALSE,FALSE,FALSE,FALSE,FALSE,FALSE,FALSE,FALSE,FALSE,FALSE,FALSE,FALSE,Centro de Acopio,
,,Centro de Acopio,Teatro Ángela Peralta,CDMX,,Centro de Acopio,15552814001,https://goo.gl/maps/Mri1P8YkRbz,,,,,,,,,,,,,,,,,,,,,,,,,,,,,,,,,,,
,,Centro de Acopio,Montañas Caliza 446,CDMX,,Centro de Acopio,,https://twitter.com/RUGGEYDA/status/910351544272527360,,,,19.425345,-99.219121,,,,,,,,,,,,,,,,,,,,,,,,,,,,,,
,,Centro de Acopio,Paseo de la Reforma 440,CDMX,,Centro de Acopio,,,,,,19.424887,-99.210648,,,,,,,,,,,,,,,,,,,,,,,,,,,,,,
,,Centro de Acopio,"Reforma 223, Eucalipto Piso 5",CDMX,,Centro de Acopio,,https://twitter.com/RUGGEYDA/status/910351544272527360,,,,19.40459,-99.232168,,,,,,,,,,,,,,,,,,,,,,,,,,,,,,
,,Centro de Acopio,Gabriel Mancera y Eugenia,CDMX,No mas agua se necesitan guantes de carnaza y cascos para los brigadistas,Centro de Acopio,,,,,,19.386718,-99.166343,,,,,,,,,,,,,,,,,,,,,,,,,,,,,,
,,Centro de Acopio,Taine 235 (entre Homero y Horacio),CDMX,,Centro de Acopio,,https://www.sismomex.com/,,,,19.434514,99.184863,,,,,,,,,,,,,,,,,,,,,,,,,,,,,,
,,Centro de Acopio,"Siclo en Park Plaza (Javier Barros Sierra 540, torre 2)",CDMX,,Centro de Acopio,,https://www.sismomex.com/,,,,19.365000,-99.25948,,,,,,,,,,,,,,,,,,,,,,,,,,,,,,
,,Centro de Acopio,Prado Sur 440 entre Explanada y Monte Altai,CDMX,,Centro de Acopio,,https://www.sismomex.com/,,,,19.421719,-99.210213,,,,,,,,,,,,,,,,,,,,,,,,,,,,,,
,,Centro de Acopio,Monte Everest 770 (Restaurante Aromas),CDMX,,Centro de Acopio,,https://www.sismomex.com/,,,,19.418497,-99.215398,,,,,,,,,,,,,,,,,,,,,,,,,,,,,,
,,Centro de Ayuda,"Av. Canal de Miramontes 3257, Residencial Miramontes, 14300 Ciudad de México, CDMX",CDMX,,Centro de Ayuda,,,,,,19.297028,-99.125491,,,,,,,,,,,,,,,,,,,,,,,,,,,,,,
,,Centro de Ayuda,"Av Universidad 3000, Cd. Universitaria, Coyoacán, 04510 Ciudad de México, CDMX",CDMX,Ciudad Universitaria,Centro de Ayuda,,,,,,19.324441,-99.184432,,,,,,,,,,,,,,,,,,,,,,,,,,,,,,
,,Centro de Acopio,"CESSA San Anger, Morelos 7",CDMX,,Centro de Acopio,,,,,,19.3343869,-99.2080981,,,,,,,,,,,,,,,,,,,,,,,,,,,,,,
,,Centro de Acopio,Juan O'Donojú 221 Lomas Virreyes,CDMX,"PEdiasure, cubetas, guantes, material de curación",Centro de Acopio,,http://www.origenac.org/,,,,19.420421,-99.20528,,,,,,,,,,,,,,,,,,,,,,,,,,,,,,
,,Centro de Acopio,Parque México,CDMX,,Centro de Acopio,,,,,,19.41192,-99.1691,,,,,,,,,,,,,,,,,,,,,,,,,,,,,,
,,Centro de Acopio,Metrobus Sonora- San Luis Potosí e Insurgente,CDMX,,Centro de Acopio,,,,,,,,,,,,,,,,,,,,,,,,,,,,,,,,,,,,,
,,Centro de Acopio,"Residencial Taxqueña 1818
Taxqueña",CDMX,,Centro de Acopio,,,,,,19.338007,-99.122944,,,,,,,,,,,,,,,,,,,,,,,,,,,,,,
,,Centro de Acopio,"Pedregal: Oceno 90, jardines del pedregal",CDMX,,Centro de Acopio,,,,,,19.32954,-99.201815,,,,,,,,,,,,,,,,,,,,,,,,,,,,,,
,,Centro de Acopio,Av san jerónimo 900,CDMX,Casa 2,Centro de Acopio,,,,,,19.328428,-99.217808,,,,,,,,,,,,,,,,,,,,,,,,,,,,,,
,,Centro de Acopio,"Porfirio Diaz 90, Centro Histórico de Tlalnepantla",Estado de MX,,Centro de Acopio,,,,,,19.540139,-99.192988,,,,,,,,,,,,,,,,,,,,,,,,,,,,,,
,,Centro de Acopio,"Claustro de Sor Juana, calle San Jerónimo 47",CDMX,,Centro de Acopio,,,,,,19.426918,-99.136166,,,,,,,,,,,,,,,,,,,,,,,,,,,,,,
,,Centro de Acopio,Calle Filadelfia 102 colonia Nápoles,CDMX,,Centro de Acopio,,,,,,19.393697,-99.176447,,,,,,,,,,,,,,,,,,,,,,,,,,,,,,
,,Centro de Acopio,DIF Jalisco- Av. Fray antonio Alcalde  Col. Miraflores,GDL,,Centro de Acopio,,,,,,20.69684,-103.347588,,,,,,,,,,,,,,,,,,,,,,,,,,,,,,
,,Centro de Acopio,"Av. Laureles 1151, Unidad Fovisste",GDL,,Centro de Acopio,,,,,,20.738212,-103.403313,,,,,,,,,,,,,,,,,,,,,,,,,,,,,,
,,Centro de Acopio,Centro de Desarrollo Integral del adulto mayor Avenida Buganbilias. Franccionamiento Buganbilias,GDL,,Centro de Acopio,,,,,,19.413502,-99.166209,,,,,,,,,,,,,,,,,,,,,,,,,,,,,,
,,Centro de Acopio,Universidad de Guadalajara,GDL,,Centro de Acopio,,,,,,20.675122,-103.358955,,,,,,,,,,,,,,,,,,,,,,,,,,,,,,
,,Centro de Acopio,Casa Jalisco- colonia Ladrón de Guevara,GDL,,Centro de Acopio,,,,,,20.685263,-103.382719,,,,,,,,,,,,,,,,,,,,,,,,,,,,,,
,,Centro de Acopio,Cruz Roja Mexicana ,GDL,,Centro de Acopio,,,,,,20.577594,-103.363074,,,,,,,,,,,,,,,,,,,,,,,,,,,,,,
,,Centro de Acopio,Museo Trompo mágico. Av. Central,GDL,,Centro de Acopio,,,,,,20.723022,-103.431458,,,,,,,,,,,,,,,,,,,,,,,,,,,,,,
,,Centro de Acopio,"Calle Luis de la Rosa, Jardín Balbuena",CDMX,,Centro de Acopio,,,,,,19.4103408,-99.1110402,,,,,,,,,,,,,,,,,,,,,,,,,,,,,,